{"version": 0.6, "generator": "Overpass API 0.7.62.11 87bfad18", "osm3s": {"timestamp_osm_base": "2026-05-02T11:35:15Z", "copyright": "The data included in this document is from www.openstreetmap.org. The data is made available under ODbL."}, "elements": [{"type": "node", "id": 1577816179, "lat": 26.1914525, "lon": 91.7539119, "tags": {"amenity": "school", "name": "Uzanbazar Government Girls' High School"}}, {"type": "node", "id": 1579672869, "lat": 26.1904355, "lon": 91.7527946, "tags": {"amenity": "school"}}, {"type": "node", "id": 1579672871, "lat": 26.1908248, "lon": 91.7542213, "tags": {"amenity": "school", "name": "Marnik Ch. Barua School"}}, {"type": "node", "id": 5049674770, "lat": 26.1115546, "lon": 91.683962}, {"type": "node", "id": 5049674771, "lat": 26.1108754, "lon": 91.6838333}, {"type": "node", "id": 5049674772, "lat": 26.1119206, "lon": 91.6817358}, {"type": "node", "id": 5049674773, "lat": 26.112359, "lon": 91.6808238}, {"type": "node", "id": 5049674774, "lat": 26.1129804, "lon": 91.6810867}, {"type": "node", "id": 5049674775, "lat": 26.1123638, "lon": 91.6823581}, {"type": "node", "id": 5049674776, "lat": 26.1119255, "lon": 91.6832432}, {"type": "node", "id": 5055410403, "lat": 26.1199411, "lon": 91.6814725}, {"type": "node", "id": 5055410404, "lat": 26.1198544, "lon": 91.6822101}, {"type": "node", "id": 5055410405, "lat": 26.119681, "lon": 91.6826715}, {"type": "node", "id": 5055410406, "lat": 26.1194329, "lon": 91.6833554}, {"type": "node", "id": 5055410407, "lat": 26.1192138, "lon": 91.6832616}, {"type": "node", "id": 5055410408, "lat": 26.1190067, "lon": 91.6832267}, {"type": "node", "id": 5055410409, "lat": 26.1191463, "lon": 91.6827278}, {"type": "node", "id": 5055410410, "lat": 26.1192869, "lon": 91.6822686}, {"type": "node", "id": 5055410411, "lat": 26.1194089, "lon": 91.6814797}, {"type": "node", "id": 5055410412, "lat": 26.1194353, "lon": 91.6814135}, {"type": "node", "id": 5066666603, "lat": 26.1193049, "lon": 91.6818517}, {"type": "node", "id": 5066666604, "lat": 26.1189826, "lon": 91.6816711}, {"type": "node", "id": 5066666605, "lat": 26.1190279, "lon": 91.6813375}, {"type": "node", "id": 5066666606, "lat": 26.119277, "lon": 91.6820613}, {"type": "node", "id": 5066666607, "lat": 26.1193218, "lon": 91.6820984}, {"type": "node", "id": 6205680431, "lat": 26.1605884, "lon": 91.7081708, "tags": {"amenity": "school", "name": "Spring Dale Public School"}}, {"type": "node", "id": 6205680434, "lat": 26.1607618, "lon": 91.7105707, "tags": {"amenity": "school", "name": "Maligaon Girls High School"}}, {"type": "node", "id": 11357638173, "lat": 26.1501532, "lon": 91.6715862, "tags": {"amenity": "school", "name": "SUNDARBARI MADHYA/UCCHA ENGLISH SCHOOL"}}, {"type": "node", "id": 11357638174, "lat": 26.1500617, "lon": 91.6719345, "tags": {"amenity": "school", "name": "SUNDARBARI PRATHAMIK VIDYALAY"}}, {"type": "node", "id": 11357638186, "lat": 26.1495326, "lon": 91.6707303, "tags": {"amenity": "school", "name": "LITTLE HEART SCHOOL(ENGLISH)"}}, {"type": "node", "id": 11932403677, "lat": 26.1581108, "lon": 91.6767685, "tags": {"amenity": "school", "name": "Brahmaputra Gurukul Academy"}}, {"type": "node", "id": 11932599695, "lat": 26.1590343, "lon": 91.689328, "tags": {"amenity": "school", "name": "e-Kids World"}}, {"type": "node", "id": 11933390627, "lat": 26.1771265, "lon": 91.7410655, "tags": {"amenity": "school", "name": "Sri Digamber Jain Vidyalaya"}}, {"type": "node", "id": 11934303329, "lat": 26.1808173, "lon": 91.7478803, "tags": {"amenity": "school", "name": "Bengali Higher Secondary School", "operator": "Board of Secondary Education", "operator:type": "government", "operator:wikidata": "Q4931371"}}, {"type": "node", "id": 11934640377, "lat": 26.1804966, "lon": 91.7463483, "tags": {"amenity": "school", "name": "Guwahati High School"}}, {"type": "node", "id": 11934672164, "lat": 26.1798859, "lon": 91.7444989, "tags": {"amenity": "school", "name": "Sanghamitra Elementary School"}}, {"type": "node", "id": 11942684719, "lat": 26.1773549, "lon": 91.7536964, "tags": {"amenity": "school", "name": "Manipuri Basti High School"}}, {"type": "node", "id": 12350937194, "lat": 26.1676847, "lon": 91.7447002}, {"type": "node", "id": 12350937195, "lat": 26.1671925, "lon": 91.7446693}, {"type": "node", "id": 12350937196, "lat": 26.1669713, "lon": 91.7445215}, {"type": "node", "id": 12350937197, "lat": 26.1669879, "lon": 91.7453225}, {"type": "node", "id": 12350937198, "lat": 26.1669824, "lon": 91.7460188}, {"type": "node", "id": 12350937199, "lat": 26.1670155, "lon": 91.7463393}, {"type": "node", "id": 12350937200, "lat": 26.1677124, "lon": 91.7462961}, {"type": "node", "id": 12350937201, "lat": 26.1677069, "lon": 91.7455259}, {"type": "node", "id": 12465323408, "lat": 26.176383, "lon": 91.7340059, "tags": {"amenity": "school"}}, {"type": "node", "id": 12658509202, "lat": 26.1406901, "lon": 91.6802214, "tags": {"amenity": "school", "name": "Heritage Public School, Gotanagar"}}, {"type": "node", "id": 12969385108, "lat": 26.1834248, "lon": 91.7415431, "tags": {"amenity": "school", "name": "Pragjyotish English Higher Secondary School"}}, {"type": "node", "id": 12973082001, "lat": 26.1731586, "lon": 91.7617607, "tags": {"amenity": "school", "name": "lachit nagar primary school"}}, {"type": "node", "id": 12974493241, "lat": 26.1687787, "lon": 91.7471368, "tags": {"amenity": "school", "name": "Arya english senior secondary school"}}, {"type": "node", "id": 12974704815, "lat": 26.1684476, "lon": 91.7485304, "tags": {"amenity": "school", "name": "GURU NANAK SPORTS ACADEMY"}}, {"type": "node", "id": 12974704816, "lat": 26.1684465, "lon": 91.7485949, "tags": {"amenity": "school"}}, {"type": "node", "id": 12976374615, "lat": 26.1741003, "lon": 91.7725759, "tags": {"amenity": "school", "name": "BOSSE"}}, {"type": "node", "id": 13016784568, "lat": 26.1593872, "lon": 91.7338822, "tags": {"amenity": "school", "name": "Holy Kids"}}, {"type": "node", "id": 13506245543, "lat": 26.1807653, "lon": 91.7561496, "tags": {"amenity": "school", "education": "school", "name": "D.A.V. High School"}}, {"type": "node", "id": 13506845491, "lat": 26.1743564, "lon": 91.7494051, "tags": {"amenity": "school", "name": "ARYA PATHSHALA"}}, {"type": "node", "id": 13509589496, "lat": 26.1734787, "lon": 91.7506899, "tags": {"amenity": "school", "name": "CRESCENT HEIGHTS PUBLIC SCHOOL"}}, {"type": "node", "id": 13511238159, "lat": 26.1900057, "lon": 91.7522038, "tags": {"amenity": "school", "education": "school", "name": "Latsil Primary School"}}, {"type": "node", "id": 13511408514, "lat": 26.1869816, "lon": 91.7575966, "tags": {"amenity": "school", "education": "school", "name": "Kamrup Academy"}}, {"type": "node", "id": 13511408517, "lat": 26.1860584, "lon": 91.7583081, "tags": {"amenity": "school", "education": "school", "name": "St Mary's School"}}, {"type": "node", "id": 13511697829, "lat": 26.1822796, "lon": 91.7822865, "tags": {"amenity": "school", "name": "ASSAM STATE SCHOOL EDUCATION BOARD"}}, {"type": "node", "id": 13516757148, "lat": 26.1799441, "lon": 91.7800423, "tags": {"amenity": "school", "education": "school", "name": "JNANDEEP ACADEMY"}}, {"type": "node", "id": 13516832967, "lat": 26.149019, "lon": 91.6486192, "tags": {"amenity": "school", "education": "school", "name": "SANGIT ACADEMY"}}, {"type": "node", "id": 13517213190, "lat": 26.1687006, "lon": 91.7470676, "tags": {"amenity": "school", "education": "school", "name": "Arya english Senior secondary school"}}, {"type": "way", "id": 517462550, "nodes": [5049674770, 5049674771, 5049674772, 5049674773, 5049674774, 5049674775, 5049674776, 5049674770], "tags": {"amenity": "school", "name": "Assam institute of Management"}}, {"type": "way", "id": 518201147, "nodes": [5055410403, 5055410404, 5055410405, 5055410406, 5055410407, 5055410408, 5055410409, 5055410410, 5066666607, 5066666606, 5066666603, 5066666604, 5066666605, 5055410411, 5055410412, 5055410403], "tags": {"amenity": "school", "name": "Pragjyotisch Senior Secondary School"}}, {"type": "way", "id": 1335028676, "nodes": [12350937194, 12350937195, 12350937196, 12350937197, 12350937198, 12350937199, 12350937200, 12350937201, 12350937194], "tags": {"amenity": "school", "name": "arya vidyapeeth college"}}]}